[
  {
    "_id": 9663,
    "name": "Susan Brennan",
    "number": 372,
    "address": "Labore id ullamco duis incididunt nisi id.",
    "lat": 1342925020883
  },
  {
    "_id": 2918,
    "name": "Audra Kirby",
    "number": 529,
    "address": "Laborum officia est sit quis dolore sit id.",
    "lat": 1342972042464
  },
  {
    "_id": 1842,
    "name": "Santana Hart",
    "number": 834,
    "address": "Fugiat ipsum sit irure labore id aliqua est enim laboris elit proident.",
    "lat": 1342691559621
  },
  {
    "_id": 6719,
    "name": "Krista Mckee",
    "number": 424,
    "address": "Eu sunt adipisicing labore labore commodo duis veniam exercitation laboris reprehenderit occaecat ipsum.",
    "lat": 1342712389507
  },
  {
    "_id": 2064,
    "name": "Lottie Sharp",
    "number": 407,
    "address": "Laborum velit do laboris laboris minim proident minim ut sunt occaecat voluptate culpa officia.",
    "lat": 1342539760827
  },
  {
    "_id": 5731,
    "name": "Barrett Vargas",
    "number": 976,
    "address": "Qui exercitation ullamco laboris do do eiusmod excepteur labore et nostrud ea dolor occaecat.",
    "lat": 1342638546520
  },
  {
    "_id": 1216,
    "name": "Gayle Jennings",
    "number": 703,
    "address": "Incididunt velit laboris sint ad officia.",
    "lat": 1342461761534
  },
  {
    "_id": 9335,
    "name": "Livingston Rose",
    "number": 645,
    "address": "Proident cupidatat est sunt ipsum nulla laborum aute pariatur irure pariatur qui magna.",
    "lat": 1342807878650
  },
  {
    "_id": 2244,
    "name": "Addie Henry",
    "number": 439,
    "address": "Cupidatat ullamco et anim ullamco voluptate id non consectetur excepteur do.",
    "lat": 1342748373695
  },
  {
    "_id": 2535,
    "name": "Knight Atkins",
    "number": 319,
    "address": "Aliqua proident dolore consectetur consectetur aliqua esse officia ea cupidatat qui irure eu enim.",
    "lat": 1342716997236
  },
  {
    "_id": 2849,
    "name": "Edna Lopez",
    "number": 727,
    "address": "Esse reprehenderit est amet nostrud laboris laborum magna irure elit officia enim voluptate ex ullamco.",
    "lat": 1342399826160
  },
  {
    "_id": 5325,
    "name": "Millicent Long",
    "number": 976,
    "address": "Amet mollit adipisicing dolor duis officia laboris proident ullamco eiusmod anim.",
    "lat": 1342411691923
  },
  {
    "_id": 8499,
    "name": "Naomi Mercer",
    "number": 365,
    "address": "In reprehenderit ut esse ea.",
    "lat": 1342879724481
  },
  {
    "_id": 7463,
    "name": "Claudia Clarke",
    "number": 744,
    "address": "Non fugiat ex mollit proident.",
    "lat": 1342678020310
  },
  {
    "_id": 6371,
    "name": "York Campbell",
    "number": 559,
    "address": "Laborum deserunt non adipisicing dolore sit cupidatat ea irure aute sunt veniam cillum cillum.",
    "lat": 1342695918485
  },
  {
    "_id": 3802,
    "name": "Shelby Hays",
    "number": 918,
    "address": "Labore ut aliquip voluptate in duis incididunt culpa ullamco pariatur nisi.",
    "lat": 1342559478769
  },
  {
    "_id": 1413,
    "name": "Brooke Mcfadden",
    "number": 395,
    "address": "Do velit dolore exercitation id aute magna.",
    "lat": 1342759373729
  },
  {
    "_id": 7019,
    "name": "Queen Douglas",
    "number": 617,
    "address": "Aliqua ex Lorem ex exercitation nisi ad sint.",
    "lat": 1342587890888
  },
  {
    "_id": 6592,
    "name": "Tucker Dennis",
    "number": 269,
    "address": "Id excepteur dolore consectetur magna non mollit nostrud aliquip.",
    "lat": 1342752991656
  },
  {
    "_id": 6002,
    "name": "Tammie Bennett",
    "number": 751,
    "address": "Est ad dolor voluptate est quis est aute ipsum excepteur.",
    "lat": 1342892679887
  },
  {
    "_id": 2809,
    "name": "Celia Parsons",
    "number": 892,
    "address": "Quis non occaecat irure nostrud in.",
    "lat": 1342913156303
  },
  {
    "_id": 9723,
    "name": "Taylor Aguilar",
    "number": 828,
    "address": "Pariatur non ad proident aliqua reprehenderit commodo nulla.",
    "lat": 1342785166510
  },
  {
    "_id": 724,
    "name": "Deloris Faulkner",
    "number": 663,
    "address": "Officia minim laboris officia incididunt voluptate.",
    "lat": 1342676555909
  },
  {
    "_id": 6366,
    "name": "Rosemarie Mccoy",
    "number": 805,
    "address": "Cupidatat qui nostrud enim elit sit esse excepteur ipsum dolor id sunt cupidatat voluptate commodo.",
    "lat": 1342499646995
  },
  {
    "_id": 3590,
    "name": "Fernandez Gay",
    "number": 421,
    "address": "Velit est sunt irure elit exercitation consectetur occaecat elit.",
    "lat": 1342374483275
  },
  {
    "_id": 7106,
    "name": "Rachelle Trevino",
    "number": 262,
    "address": "Adipisicing enim excepteur irure mollit fugiat sit ullamco sit consectetur pariatur.",
    "lat": 1342781446633
  },
  {
    "_id": 6875,
    "name": "Aguirre Fitzgerald",
    "number": 685,
    "address": "Exercitation velit eu irure aliquip excepteur pariatur aute aliqua aute nulla cupidatat labore.",
    "lat": 1342702222674
  },
  {
    "_id": 9161,
    "name": "Vickie Spence",
    "number": 455,
    "address": "Voluptate amet laboris ea labore cillum consequat incididunt irure eiusmod aliquip.",
    "lat": 1342697476065
  },
  {
    "_id": 4783,
    "name": "Diann Shepherd",
    "number": 370,
    "address": "Ex fugiat qui eiusmod ex nisi.",
    "lat": 1342727626721
  },
  {
    "_id": 5674,
    "name": "Gay Gomez",
    "number": 968,
    "address": "Officia et quis sint in consequat nulla.",
    "lat": 1342747423493
  },
  {
    "_id": 6555,
    "name": "Kristie Alvarez",
    "number": 511,
    "address": "Proident velit amet sunt laborum quis exercitation.",
    "lat": 1342894200517
  },
  {
    "_id": 2905,
    "name": "Sheppard Gray",
    "number": 505,
    "address": "Et dolore in occaecat dolore id enim mollit proident non amet reprehenderit dolor mollit.",
    "lat": 1342416260001
  },
  {
    "_id": 722,
    "name": "Velasquez Johnson",
    "number": 402,
    "address": "Commodo esse sunt irure cupidatat adipisicing.",
    "lat": 1342449129859
  },
  {
    "_id": 650,
    "name": "Evans Roach",
    "number": 289,
    "address": "Ut ut quis incididunt mollit in proident sit voluptate ipsum.",
    "lat": 1342765950944
  },
  {
    "_id": 2235,
    "name": "Newman Howard",
    "number": 318,
    "address": "Ipsum quis pariatur cupidatat exercitation.",
    "lat": 1342728364491
  },
  {
    "_id": 7963,
    "name": "Charity Mejia",
    "number": 563,
    "address": "Anim ipsum elit ad nisi.",
    "lat": 1342883197308
  },
  {
    "_id": 6952,
    "name": "Kristin Stein",
    "number": 529,
    "address": "Incididunt aliqua nostrud laboris irure dolor tempor.",
    "lat": 1342614053403
  },
  {
    "_id": 1665,
    "name": "Tina Vazquez",
    "number": 405,
    "address": "Aliqua ullamco officia est ut nulla enim commodo Lorem tempor reprehenderit et.",
    "lat": 1342403593694
  },
  {
    "_id": 4296,
    "name": "Florence Webb",
    "number": 414,
    "address": "Reprehenderit et laboris ea officia eu est dolore ut consectetur.",
    "lat": 1342886993605
  },
  {
    "_id": 4346,
    "name": "Neva Daniel",
    "number": 573,
    "address": "Est adipisicing dolor dolore nostrud ex ut ex non esse nostrud proident velit excepteur.",
    "lat": 1342953136011
  },
  {
    "_id": 8268,
    "name": "Natalie Bowen",
    "number": 914,
    "address": "Proident nulla laborum ipsum duis amet nostrud aute dolore ea.",
    "lat": 1342966564867
  },
  {
    "_id": 4924,
    "name": "Barker Hunt",
    "number": 733,
    "address": "Pariatur duis do voluptate cillum commodo Lorem labore do exercitation esse et.",
    "lat": 1342619568338
  },
  {
    "_id": 7310,
    "name": "Gladys Hyde",
    "number": 727,
    "address": "Esse dolor sit excepteur cupidatat.",
    "lat": 1342680140239
  },
  {
    "_id": 6034,
    "name": "Short Norton",
    "number": 508,
    "address": "Culpa magna officia quis cillum voluptate ullamco.",
    "lat": 1342714952607
  },
  {
    "_id": 5343,
    "name": "Mejia Reyes",
    "number": 591,
    "address": "Culpa sunt magna sit dolor in consequat est.",
    "lat": 1342502149656
  },
  {
    "_id": 9580,
    "name": "Petersen Robertson",
    "number": 597,
    "address": "Magna fugiat fugiat consectetur pariatur adipisicing elit incididunt sit quis aliquip quis amet.",
    "lat": 1342734874058
  },
  {
    "_id": 2876,
    "name": "Mcdowell Mcknight",
    "number": 722,
    "address": "Fugiat labore pariatur fugiat ex deserunt est velit sint.",
    "lat": 1342801268690
  },
  {
    "_id": 6267,
    "name": "Brennan Rollins",
    "number": 954,
    "address": "Magna elit in proident minim duis deserunt tempor deserunt ad excepteur nulla commodo.",
    "lat": 1342408442795
  },
  {
    "_id": 7262,
    "name": "Summers Barrett",
    "number": 519,
    "address": "Ex anim mollit elit ullamco fugiat do nisi aliquip voluptate velit duis voluptate.",
    "lat": 1342743199938
  },
  {
    "_id": 551,
    "name": "Medina Fry",
    "number": 602,
    "address": "Occaecat occaecat nisi nulla exercitation fugiat adipisicing id laborum occaecat.",
    "lat": 1342579463864
  },
  {
    "_id": 938,
    "name": "Horn Hogan",
    "number": 438,
    "address": "Est elit culpa nulla id tempor pariatur enim.",
    "lat": 1342566777018
  },
  {
    "_id": 5720,
    "name": "Simone Cabrera",
    "number": 765,
    "address": "Qui fugiat velit ex velit exercitation.",
    "lat": 1342577163226
  },
  {
    "_id": 2942,
    "name": "Magdalena Jones",
    "number": 660,
    "address": "Irure culpa dolore quis fugiat.",
    "lat": 1342590176873
  },
  {
    "_id": 6984,
    "name": "Myrna Oconnor",
    "number": 668,
    "address": "Laborum occaecat culpa anim ad tempor.",
    "lat": 1342393763562
  },
  {
    "_id": 3524,
    "name": "Russell Donaldson",
    "number": 734,
    "address": "Laborum ut cillum ex ad.",
    "lat": 1342495058731
  },
  {
    "_id": 7290,
    "name": "Rutledge Rojas",
    "number": 990,
    "address": "Dolor magna ad sunt sint.",
    "lat": 1342633214932
  },
  {
    "_id": 9486,
    "name": "Brandie Diaz",
    "number": 972,
    "address": "Qui tempor qui anim do non eiusmod nisi qui et consectetur consequat labore commodo.",
    "lat": 1342495193918
  },
  {
    "_id": 6739,
    "name": "Erica Powers",
    "number": 786,
    "address": "Lorem ea velit veniam anim proident dolor ex do minim qui veniam et.",
    "lat": 1342525075017
  },
  {
    "_id": 5830,
    "name": "Mathis Cannon",
    "number": 840,
    "address": "Dolor sit commodo ex culpa exercitation nulla adipisicing voluptate in laborum aliqua.",
    "lat": 1342859656598
  },
  {
    "_id": 2593,
    "name": "Leah Guerra",
    "number": 725,
    "address": "Esse est tempor elit sit reprehenderit.",
    "lat": 1342646854605
  }
]